name,@lat,@lon
Cafe Saint Ex,38.9154205,-77.0317015
Red Land Club,38.0315033,-78.4770551
Ecitie,38.9310786,-77.2364360
Car Pool,38.9669725,-77.3693273
Flanagan's Harp and Fiddle,38.9901507,-77.0971547
Saphire,38.9902695,-77.0958136
Bourbon,38.9202635,-77.0415814
Black Squirrel,38.9212341,-77.0419089
Soussi,38.9195312,-77.0418784
The Fab Lounge,38.9143559,-77.0457988
Bobby Lew's,38.9172638,-77.0418796
Brass Monkey,38.9201629,-77.0415154
Club Timehri,38.9215128,-77.0420009
The High Dive,38.9205949,-77.0416785
Madam's Organ,38.9220266,-77.0421814
Grand Central,38.9217494,-77.0420559
Dan's Cafe,38.9201030,-77.0415353
Bossa,38.9220802,-77.0421955
The Attic,38.9215468,-77.0439277
Columbia Station,38.9203763,-77.0415829
Bedrock Billiards,38.9214878,-77.0438339
Sutra Lounge,38.9208887,-77.0423206
Player's Lounge,38.8471912,-76.9963228
The Scene,38.9192533,-76.9738869
Layla Lounge,38.9071341,-76.9989222
DC Star,38.9199037,-76.9724003
Serengeti,38.9653450,-77.0279692
Simple Bar,38.9609060,-77.0282860
Petworth Citizen & Reading Room,38.9421221,-77.0244814
Porrón by ANXO,38.8819671,-76.9952596
Lounge 201,38.8946466,-77.0032801
H Street Country Club,38.9000207,-76.9870656
The Haymaker,38.8999962,-76.9920594
Club Elevate,38.9022273,-77.0078247
Atlas Arcade,38.9003573,-76.9889758
Capitol Lounge,38.8869387,-77.0024524
Little Miss Whiskey's Golden Dollar,38.9003597,-76.9912049
Bachelor's Mill,38.8771782,-76.9947481
Chateau,38.8960226,-76.9562037
The Pinch,38.9357605,-77.0330433
Asia Nine Bar and Lounge,38.8963590,-77.0250648
Green Lantern,38.9044841,-77.0308673
Rocket Bar,38.8990127,-77.0221127
Zola Wine and Kitchen,38.8965187,-77.0237127
Archibald's/Fast Eddies Billiards Cafe,38.9021339,-77.0355850
The Big Hunt,38.9084106,-77.0424176
The Fireplace,38.9098302,-77.0485969
Ozio Martini & Cigar Lounge,38.9058284,-77.0423700
JR's Bar and Grill,38.9104732,-77.0381978
Omega,38.9091940,-77.0476352
Sign Of The Whale,38.9058402,-77.0427803
Mission Mexican Restaurant Bar,38.9112951,-77.0450783
Mixers Lounge,38.9563927,-77.0120920
Chinese Disco,38.9062589,-77.0637903
Saloun,38.9053053,-77.0641501
Smith Point,38.9076176,-77.0636422
McClellan's Retreat,38.9143053,-77.0465903
Vegas Lounge,38.9098587,-77.0326181
Number Nine,38.9098061,-77.0333640
Cork Wine Bar,38.9133220,-77.0322326
Da Hong Pao,38.9093736,-77.0316803
Raven Grill,38.9293960,-77.0374038
Red Derby,38.9377279,-77.0330896
Mirrors,38.9075472,-77.0076848
The EFN Lounge and Motley Bar,38.9079172,-77.0242003
Jimmy Valentine's Lonely Hearts Club,38.9039136,-76.9806006
Hawthorne,38.9168110,-77.0310470
DC 9 Nightclub,38.9167112,-77.0242242
Vinoteca,38.9167297,-77.0273026
Local 16,38.9167985,-77.0370718
The Gibson,38.9173696,-77.0316423
Cloak & Dagger,38.9171453,-77.0314825
Station 9,38.9167982,-77.0328479
Sudhouse,38.9168579,-77.0311816
Pure Nightclub & Lounge,38.9167905,-77.0307384
Quarter & Glory,38.9176386,-77.0316179
Red Lounge,38.9174716,-77.0316138
Lounge of Three,38.9172062,-77.0264261
Twins Jazz,38.9167447,-77.0313007
JoJo Restaurant & Bar,38.9168375,-77.0353832
Chi-Cha Lounge,38.9167893,-77.0378895
Velvet Lounge,38.9171596,-77.0246671
MiHaley's,39.6677931,-79.9580324
The Big Board,38.9000577,-76.9997261
Rose’s Dream Bar & Lounge,38.9003680,-76.9859753
Gypsy Sally's,38.9041378,-77.0681132
The Sovereign,38.9053845,-77.0629709
Georgetown Piano Bar,38.9053051,-77.0655971
Parlay Sports Bar & Lounge,38.9058368,-77.0428473
Heist,38.9063642,-77.0422020
Public Bar,38.9062616,-77.0419687
Bar à Vin,38.9035707,-77.0608905
ENO Wine Bar,38.9048729,-77.0575413
Third Eye,38.9133141,-77.0452916
Larry's Lounge,38.9153910,-77.0418536
Wok and Roll,38.9207910,-77.0422277
Saloon,38.9171639,-77.0284843
All Souls,38.9157386,-77.0227160
Mighty Mike's,38.9980852,-77.4069801
The Tasting Room,38.9609066,-77.0868310
Raven Inn,39.3962895,-76.5634371
Truxton Inn,38.9138512,-77.0155774
Savour,38.9209353,-77.0423115
Sake House Inc.,37.2126394,-80.4018125
Memphis Belle,39.3366801,-76.4088618
Tavern in the Quarters,39.3292486,-76.3948257
Pit Stop,39.3347041,-76.4127833
Cap'n Cork,39.3347767,-76.4143979
Wilson Point Inn,39.3147073,-76.4149020
,39.3056698,-76.4637845
,39.3052796,-76.4636772
Johann's,39.2824181,-76.4275680
,39.3115769,-76.4478600
,39.3102861,-76.4537233
Benchwarmers Pub,39.3347283,-76.4448483
Pop's Tavern,39.2568625,-76.4623049
Old Legends Bar,36.7779501,-83.0537541
Felicita Restaurant & Club,39.1419021,-77.2229648
Charles Village Pub,39.3261586,-76.6157084
Valley Inn,39.5511900,-81.6436310
The Greene Turtle,38.5285551,-76.9783157
Hard Times,38.6365062,-77.2930949
Avenue Tavern,39.3248233,-76.4462879
Public Tenley,38.9540520,-77.0815970
Lou's City Bar,38.9284992,-77.0338260
,39.6282623,-79.9574936
Little Village,39.6579429,-79.9850492
Apothecary,39.6296845,-79.9573672
Hops Inn,39.2763488,-76.5281340
Jolynn's,39.2770547,-76.5272274
Dun Deglean,39.2665480,-76.5185102
Phillip's Inn,39.2727775,-76.5232953
Kenny B's Blue Marlin,39.2706021,-76.5265354
Bay Shore Bar & Grill,39.2294538,-76.4307928
Overlea Station,39.3572574,-76.5280905
Sams Bar (at Doubletree),38.1008988,-78.4630153
Pearmund Cellars Winery,38.7834091,-77.7396526
Venue 112 Rock'n Sports Lounge,36.8463686,-76.0492862
Buffalo Wings And Beer,39.1609527,-77.1625758
Gentleman Jims,39.1680686,-77.1720836
Fardowners,38.0691825,-78.7003498
King Family Winery,38.0623934,-78.7284272
Tobacco Barn,38.3190911,-76.4561454
Tiki Bar,38.3194840,-76.4560476
CD Cafe's Next Door Lounge,38.3265928,-76.4618827
Players Bar and Grill,39.3073763,-76.8901458
The White Oak Tavern,39.2814470,-76.8569760
Desperados,38.9168196,-77.0312337
Cuba Pete's,37.2703693,-79.9432080
,38.7869539,-76.2243377
Nottingham's,39.1902033,-76.8149077
Avenue Cafe Lounge,38.9080178,-77.0349053
The Bank Shot Bar & Grill,39.0907595,-76.7770658
Bar Dupont,38.9103680,-77.0431485
Morgan's Sports Bar & Lounge,38.6513285,-77.3045453
,39.0995832,-76.7463868
American Ice Company,38.9183318,-77.0252656
The Tasting Room,38.7853068,-77.0161044
,38.4210734,-82.4415130
Stadium Lounge,38.4224093,-82.4339854
,38.4208338,-82.4424249
,38.4259359,-82.4223459
,38.4205102,-82.4435300
Fresh Tapas & Tonics,36.7664617,-76.0155681
S & J Restaurant,38.9625477,-76.9357430
Bar Louie,39.0863301,-77.1520911
Das Bier Haus,39.2717396,-76.6117003
The Old City Bar,37.5338433,-77.4287017
,38.9745158,-77.0781648
Bungalow Billiards,38.8937360,-77.4257780
Brickhouse,37.0837804,-76.4887104
,37.2294614,-80.0108629
Bilbo Baggins,38.8065770,-77.0413446
Woody's Rum Bar and Island Grill,39.2820036,-76.5926760
Slainte Irish Pub and Restaurant,39.2820121,-76.5925570
Kooper's Tavern,39.2820152,-76.5924801
Boveda,38.9051230,-77.0507670
Frisby's Bar & Grill,37.5155249,-77.7943560
Durty Nelly's Pub-Wayside Deli,38.0257153,-78.5154159
Red Dog Saloon,36.8677268,-76.2982844
Penn Social,38.8963031,-77.0231869
Mackey's,38.8981015,-77.0302259
Black Whiskey,38.9092784,-77.0322917
Satellite Room,38.9181294,-77.0237774
The Pompei Lounge,38.1496890,-79.0717062
Barcelona Wine Bar & Restaurant,38.9120935,-77.0323977
,39.2725378,-76.5346323
Wolf Hills Brewery,36.7123541,-81.9653957
Gordon Biersch Brewery,38.9815145,-76.5418406
Showtime Lounge,38.9157733,-77.0127143
TD Lounge,39.1032323,-76.8439251
Shamrock Cafe,39.5402000,-82.4077310
Whirlz Yogurt Bar & Crepes,39.2437141,-76.8425039
Blue Mountain Barrel House,37.7103488,-78.9438603
Right Proper Brewing Company,38.9154119,-77.0213751
Roots Rock Reggae,38.0344736,-78.5000832
High Life Lounge,38.9200284,-79.8424248
Beander's,38.9258372,-79.8493447
Jabberwock,38.9234110,-79.8495180
Continental Divide,38.0318456,-78.4909688
United Global First Class Lounge,38.9454647,-77.4417970
High Life Lounge,38.9971194,-80.2325875
88 Bar & Lounge,38.9943468,-80.2260235
Hot Spot Lounge,39.2569746,-80.3216674
High Life Lounge,39.2673689,-80.3291616
AleWerks Brewing Company,37.3210783,-76.7328773
Good Times Lounge,39.0699681,-78.9678257
Biggio's,39.2789239,-80.3529886
MJ's Sports Bar,39.4816252,-80.1382251
Capital Ale House - Innsbrook,37.6484953,-77.5839100
The Beach House,37.6487636,-77.5854444
Sharky's Bar & Billiards,37.6482611,-77.5846002
The Halligan Bar & Grill,37.6481468,-77.6046069
The Wine Loft,37.6485108,-77.6020793
,38.8547182,-77.3177908
Alewife,39.2902486,-76.6208393
Speakeasy Saloon Dining House,39.2804230,-76.5755654
Plug Ugly's Publick House,39.2804408,-76.5751145
El Buffalo,39.2799827,-76.5745913
Southern Provisions,39.2804830,-76.5738470
Tony's Tavern,39.3305386,-82.1014666
MVP Bar & Grill,38.7948953,-77.6136080
Trusty's,38.8801720,-76.9843780
Mister Days Sports Rock Cafe,38.8860496,-77.0950059
Bracket Room Sports Lounge & Eatery,38.8869107,-77.0941262
Continental Modern Pool Lounge,38.8979490,-77.0716336
Bravo,38.9277890,-77.0228670
Red Light,38.9127870,-77.0321987
Obrycki's Restaurant & Bar,39.1807349,-76.6731912
Bar,39.2826675,-76.5923412
Wisdom,38.8800854,-76.9841302
Lyman's,38.9377900,-77.0330120
Young's Place Tavern & Package Goods,39.2943697,-76.5862747
Ivy & Coney,38.9106583,-77.0217096
The Rec Room,39.4010133,-76.6020706
The Kent House,39.4007002,-76.6021338
Peace Lounge,38.9250019,-77.0228621
Cheerz,38.9784401,-77.0261822
Creation Inn,38.9791706,-77.0267323
Torrent Lounge,39.4010082,-76.6013817
Froggy Bottom Pub,38.9027776,-77.0457902
Skeeter's Bar,39.2668015,-76.6525611
BJ’s Pub,39.3966334,-76.4761613
American Tap Room,37.5821188,-77.4979879
Johnny Dee’s Banquet Hall,39.3929862,-76.5627395
Johnny Dee’s Lounge,39.3930749,-76.5625879
McAvoy's,39.3890010,-76.5425686
Lil' Dicky's,39.3996099,-76.6024691
The Crease,39.4012786,-76.6025201
Souris Saloon,39.4014600,-76.6026185
The Horse You Came In On Saloon,39.2815148,-76.5941314
Duda's Tavern,39.2811203,-76.5948556
Bar Louie,39.3712407,-76.4652517
Della Rose's Avenue Tavern,39.3711373,-76.4635601
Poplar Pub & Restaurant,39.2699819,-76.5023961
Rye,39.2815559,-76.5935646
Birds of a Feather Scotch Bar,39.2836872,-76.5925581
ABC Liquors and Lounge,38.2913053,-76.4953664
Nick's Roman Terrace,37.6259686,-77.5324130
World of Beer,38.0319625,-78.4926293
Comedy Sportz,37.6360024,-77.5448415
Corner Pocket,37.1983755,-77.3773835
The Cellar,37.2309503,-80.4150229
Omega Bar,36.8719408,-76.1690309
Thurmont Bar and Grill,39.6234718,-77.4111811
The Eagle's Nest Bar,36.7917493,-76.2378540
Wings At Indian River Bar And Grill,36.8186903,-76.2234859
Brittany’s Sports Bar,38.6836468,-77.3177211
Tropicalia Lounge,38.9171380,-77.0316421
Judy's,37.7495880,-81.1376515
The Pitch,38.9402530,-77.0247880
Bar Charley,38.9150699,-77.0414418
The Green Turtle,37.0434956,-76.3937951
Bar Louie,37.0435609,-76.3933418
B-Side,38.8735286,-77.2307129
Cities,38.9020075,-77.0431824
Zeba Bar,38.9322311,-77.0324622
,39.2858760,-76.6337670
The Goddess,39.2876341,-76.6210339
The Hipp Cafe,39.2894381,-76.6211358
The Broadberry,37.5617414,-77.4692977
Bar Symon,38.9453607,-77.4509410
Peter's,39.2883616,-76.6129808
The Water Street Tavern,39.2882462,-76.6133419
The Wharf Rat,39.2825805,-76.5910662
Fells Point Tavern,39.2812265,-76.5947658
Rocket to Venus,39.3285474,-76.6295091
Ottobar,39.3188574,-76.6196694
13.5% Wine Bar,39.3309353,-76.6343895
Hon Bar,39.3312352,-76.6328312
Portside,39.2798971,-76.5760074
Liberty Bar,37.5431305,-77.4370100
The Wine Harvest,39.1224573,-77.2348261
Dante's Bar-Art-Music,39.6575543,-78.9285423
Honi-Honi Bar,39.5046084,-79.3249268
Golden Sports Bar,39.2773830,-76.8174590
Town Hall Liquors,38.9908738,-76.9334482
Conah's Bar & Grille,39.5732155,-76.9941709
Angles Bar,38.9206640,-77.0416197
Red Red Wine Bar,38.9778461,-76.4906898
Stan & Joe's Saloon,38.9782357,-76.4947858
Charlie's Bar,38.9771253,-76.4871950
Sandman's,39.2839931,-76.5680678
a.lounge,38.8999620,-77.0401700
Tiki Bar,39.2775649,-76.5784972
A-Town Bar & Grill,38.8821838,-77.1096373
Full Moon Tavern,38.7752861,-80.2095320
Highline RxR,38.8558140,-77.0496890
Sandy's,38.3679260,-81.6977170
Kislings Tavern,39.2849464,-76.5868352
The Pub,38.9336386,-77.1801364
Rum Runners,38.7506237,-77.4712836
Jackpot,38.8991219,-77.0221972
Sports Bar,37.4660303,-77.4285871
KD's Pub and Grub,39.6274946,-79.9528597
Kardinal Hall,38.0359561,-78.4878299
Bent Willey's,39.6321217,-79.9554658
Peggy Sue's Bar,37.8924730,-81.1689966
Fat Daddy's Bar & Grill,39.6317275,-79.9549506
RockTop Bar & Grill,39.6309025,-79.9564125
Chemistry,36.8497445,-75.9756250
Mai Bar,36.8510119,-75.9762171
The Boxx,36.8496906,-75.9756092
Lost and Found,38.9068745,-77.0241689
High Velocity,38.9040184,-77.0242313
,39.4369554,-77.8041537
Vino Volo,39.1798800,-76.6725160
Mad Annie's Tavern,38.6986182,-80.6626075
Finnegan’s Bar & Grill,39.0446097,-77.4756281
Midlands Beer Garden,38.9319730,-77.0234280
Reliable Tavern,38.9360670,-77.0240637
The Dew Drop Inn,38.9259285,-76.9947194
123 Pleasant Street,39.6295396,-79.9579303
The Gryphon,38.9082613,-77.0423275
Southside Saloon,39.2729763,-76.6074137
,38.2377443,-76.5025459
,38.2396563,-76.5230295
,38.2244953,-76.5184525
Chief's,38.1655591,-76.5343991
Sonoma's,39.1865314,-76.8436922
Hank's Cocktail Bar,38.9420896,-77.0241586
2010 Lounge,38.9173863,-77.0242088
Base Line Brews,38.8725594,-77.0064754
Red Porch,38.8738395,-77.0073095
Encore Ultra Lounge,37.5361151,-77.4342089
KAI,37.5356359,-77.4339996
Grand Cata,38.9107240,-77.0222000
McClafferty's Irish Pub,39.6308167,-79.9576605
Butts and Betty's Tavern,39.2881521,-76.5858468
Old Bust Head Brewing Company,38.7440342,-77.6757940
Rock Wall,38.6734561,-80.7749943
2 Birds 1 Stone,38.9142512,-77.0323441
Sotto,38.9115533,-77.0323597
Diet Starts Monday,38.9172638,-77.0316361
Muddie Waters,39.5419200,-82.4208710
The Max Bar and Grill,39.5424630,-82.4214880
Home Tavern,39.5382360,-82.4169440
Crystal Bar,39.5374410,-82.3928340
Growling Bear Brewing Company,38.6508307,-77.3088137
Barcode,37.5447481,-77.4424473
Denson,38.8971320,-77.0202003
Union Drinkery,38.9305184,-77.0236671
Penn Commons,38.8987596,-77.0201233
The Local,37.5460205,-77.4557648
The Rogue Gentlemen,37.5488208,-77.4376850
Appel's Gateway,39.6482725,-78.7709839
Muzette,38.9198032,-77.0415129
The Winery at La Grange,38.8508817,-77.6861043
Finnigan's Cove,38.4486648,-78.8697616
Ruby's Arcade,38.4476489,-78.8697416
Ground Floor Lounge,38.7328303,-79.9698664
Hair of the Dog Bottle Shop,37.2714113,-76.7059890
Barcode,38.9039033,-77.0380051
Jack Brown's,37.5731996,-77.5189257
Beijing on Grove,37.5732107,-77.5177308
Blue Valley Vineyard And Winery,38.8919089,-77.9013582
Spare Times Bar and Grill,36.6885859,-78.8801664
Quench,39.0916838,-77.2041649
Sliders Bar and Grill,39.2856465,-76.6225963
Hive Bar,38.8971909,-77.0497819
r.bar,39.3216710,-76.6221426
Taps Fill Station,39.2960171,-76.6187529
Cherry Blossom Pub,38.9151076,-77.0216537
Mezzos Tavern,39.6506524,-78.7604156
Smiling Skull,39.3292654,-82.1051494
Cat's Den,39.3293172,-82.1052309
The Passenger,38.9107097,-77.0217148
Suburbia,38.9082261,-76.9971669
World of Beer,39.0841986,-77.1503243
The Riggsby,38.9133369,-77.0396171
The Naked Olive Lounge,39.6282662,-78.2273336
Hillbilly Heaven,39.6298023,-78.1759536
Tyber Creek,38.9154232,-77.0119424
Bin 1301,38.9171459,-77.0306168
Top of the Yard Rooftop Bar & Bites,38.8748376,-77.0064153
Kiss,38.9157192,-77.0213818
Caroline's Bar,39.0168213,-77.0893363
The Brig,38.8778261,-76.9952839
,38.9875708,-77.3680686
Eat-Bar,38.8831986,-76.9951878
ANXO Cidery & Tasting Room,38.9565206,-77.0228637
The Codmother,38.9167747,-77.0309828
The Rye Bar,38.9040146,-77.0613312
18th Street Lounge,38.9062223,-77.0421331
Rosebar,38.9064031,-77.0411812
Off The Record,38.9028416,-77.0388280
Gazuza,38.9119108,-77.0443476
The Dirty Goose,38.9172384,-77.0246152
Barcelona,38.9120384,-77.0324486
Kingfisher DC,38.9094395,-77.0321972
Trade,38.9092778,-77.0321905
PostScript,38.9053837,-77.0343021
Le Bar,38.9003972,-77.0339200
Republic Restoratives Distillery,38.9153108,-76.9852841
Sing Sing Karaoke Bar,38.9003606,-76.9893681
Atlas Brew Works,38.9148494,-76.9813086
Murray Hill Club,38.9148077,-76.9815312
Pinea,38.8967307,-77.0333211
Franklin Hall,38.9200515,-77.0312484
bar247,39.1569068,-76.6092250
Columbia Room,38.9063714,-77.0244364
Bardo Brewpub,38.8701326,-77.0074084
The Laughing Pint,39.2885097,-76.5674064
Castaways Bar & Grill,39.2837893,-76.5853098
Smaltimore,39.2831763,-76.5804498
The Majestic,38.8239966,-77.0586126
Heavy Seas Beer,39.2320796,-76.6758041
Brookey's,39.3277475,-76.5657036
Oasis,39.2896498,-76.6094840
Java Moon Cafe,39.3075119,-76.6159730
Down Under Pub,38.6840962,-77.2602447
Dio Wine Bar,38.9003923,-76.9934442
DC Craft Brews,38.9453941,-77.4539788
United Club,38.9454693,-77.4452046
United Club,38.9454592,-77.4431173
Breaker's Sky Lounge,38.9499248,-77.4091513
Watering Hole,38.8793378,-77.0254092
Pearl Street Warehouse,38.8788327,-77.0240040
Bravo Bravo,38.9029189,-77.0392331
,38.4722822,-77.3778941
,39.2927807,-77.8507068
Nidos,38.9305449,-76.9737266
Free State,38.8984588,-77.0192399
Kalypso's Sports Tavern,38.9688565,-77.3407018
Midway Bar,39.2896532,-76.6093566
R bar,39.1569544,-76.7269865
Route 24 Ale House,39.4980904,-76.3264617
Left Door,38.9142540,-77.0315008
The Union Bar & Grill,39.3276950,-82.1021930
Union Trust,38.8998555,-77.0338922
J Bar,39.3304617,-82.1012621
Lucky's,39.3296465,-82.1013518
The Pub,39.3303955,-82.1012584
Pawpurrs,39.3303281,-82.1012610
The Pigskin,39.3301858,-82.1009498
The CI,39.3300403,-82.1009666
The Crystal,39.3300899,-82.1009643
Red Brick Tavern,39.3296677,-82.1010146
Cat's Eye,39.3296065,-82.1010173
The Hangover,39.3311474,-82.1011572
Hooka Lounge,39.3303610,-82.1007136
Wispers Mountainside Bar,39.5565288,-79.3628106
Brothers and Sisters,38.9227894,-77.0416213
The Brass Tap,39.4048018,-76.5987822
Moby’s,39.2830085,-76.5930495
DogWatch Tavern,39.2832053,-76.5930714
Rodos Bar,39.2830591,-76.5930503
Brass Rail,39.3415745,-78.7564733
The Marquee,38.9229305,-77.0540902
Micky's,39.2350818,-76.4564181
The Green Room,39.2843569,-76.4945317
SUKI HANA,39.1572471,-76.7257400
Kelly's Hot Spot,38.4529883,-81.9365071
A&D Bar,38.9077599,-77.0241401
Philip Carter Winery,38.8561811,-77.9908997
Cobbler Mountain Cellars,38.8483417,-77.9439724
Desert Rose Ranch and Winery,38.8402265,-78.0840000
Septenary,38.0419055,-78.7476946
Solace Brewing Company,38.9508775,-77.5282664
Terra 2,39.3176900,-76.6151591
Aspen Dale Winery at the Barn,38.9076614,-77.9615924
Lobby Bar,38.9243145,-77.0547939
Washington Pour Bar,38.8561708,-77.0422941
Vino Wine Bar & Shop,39.2814357,-76.5909618
The Point In Fells,39.2820289,-76.5913223
Cat’s Eye Pub,39.2820145,-76.5915485
Penny Black,39.2820562,-76.5910082
Urban Pirates,39.2812530,-76.5909538
H Bar,38.8786500,-77.0240825
SoBo Market,39.2714909,-76.6135746
Whiskey Charlie,38.8784044,-77.0237316
Betsy,38.8822160,-76.9944661
The Shack on 8th,36.8364958,-75.9721000
Fallout Shelter Craft Beer & Classic Arcade,39.6310764,-79.9557128
,38.8878966,-77.0751214
,38.8899214,-77.0715417
Service Bar DC,38.9168326,-77.0250287
Grain Rooftop Beer Garden,36.8463506,-76.2920250
Agave Lounge,36.9102111,-76.0742037
Bar,37.5531511,-77.4809487
PBR,36.8442436,-76.2916349
Blue Moon Taphouse,36.8440297,-76.2908141
The Yard,36.8443260,-76.2906045
The Harbor Club,36.8441802,-76.2912275
Starr Hill Market Bar,36.8443469,-76.2908321
VIN Wine Bar,36.8442193,-76.2908874
Rod 'n Reel Tavern,38.6905529,-76.5331918
Norfolk Tap Room,36.8465135,-76.2924117
Hell's Kitchen,36.8469220,-76.2919226
Grace O'Malleys,36.8483551,-76.2914614
Brick Anchor Brewhouse,36.8491395,-76.2910360
Pourhose of Norfolk,36.8495208,-76.2908074
Scotty Quixx,36.8521189,-76.2892154
Gershwins,36.8505542,-76.2899962
Tap It,36.8491505,-76.2906935
Mount Vernon Saloon,39.3000386,-76.6156715
District 5,37.5489220,-77.4655256
4th & Goal,39.6294351,-79.9554398
Liquid Lounge,39.6295898,-79.9552705
Culture Lounge,36.8570814,-76.2880185
Morini Piccolo,38.8729329,-77.0016567
Oygen,39.2891742,-76.6124410
Wit's End Saloon,39.4531245,-76.6411578
The Cellar at Chef Paolino Cafe,39.2767028,-76.8348947
Endless Trails Hookah Bar,37.1092644,-76.3930285
Cantina Bambina,38.8799059,-77.0263921
88 Restaurant & Lounge,38.9941730,-80.2256052
Centiennial Pub,38.9951407,-80.2326675
Dylan’s Oyster Cellar,39.3313310,-76.6292644
Skyline Cafe-Ethiopian Cuisine,38.8409513,-77.1201647
Red Star,39.3279221,-76.6162526
Maxie’s,39.3256032,-76.6170478
Baltimore Spirits Company,39.3359946,-76.6440414
World of Beer,39.4064388,-76.7816562
Walt's Inn,39.2802269,-76.5709669
The Thirsty Beaver,38.7384482,-82.9754221
PatRick’s Sports Bar & Grill,39.3090609,-76.4747121
444 Liquors,39.3084769,-76.4766714
Duck On Inn,39.3066279,-76.4796433
Rock-A-Billy's,39.3316602,-76.4435502
Billy Motel Bar,39.1297589,-79.4731852
The G.O.A.T.,38.8874284,-77.0948376
Pappas Sports Bar,39.2873808,-76.6198498
Naughty Scotties,37.2264534,-80.4088173
Suspended Brewery,39.2830093,-76.6314932
The Williamsburg Winery Tasting Room and Wine Bar,37.2711593,-76.7066082
Montego Bar & Grille,39.3104840,-76.6166521
Bean Bar,39.0900326,-77.5257386
Bar Louie,39.0516572,-77.4541461
World of Beer,39.0504967,-77.4539212
Apple Lounge Hookah Bar,38.9168190,-77.0276426
Hub Sports Bar & Grill,39.3248835,-76.5405107
Diamond Bar,38.8289315,-77.1930037
Hyatt,38.8909761,-77.0875363
Wilson hardware,38.8885502,-77.0937548
Brickhouse Tavern,37.2739629,-76.7123247
Legends,39.0408732,-77.0502399
Unplugged,39.0407250,-77.0504146
British Airways Lounge,38.9488749,-77.4509703
Lufthansa Lounge,38.9488748,-77.4509246
Turkish Airlines Lounge,38.9488825,-77.4495735
Virgin Atlantic Clubhouse,38.9488288,-77.4472976
Air France Lounge,38.9488382,-77.4455980
Eithad Airways Lounge,38.9486153,-77.4446744
,39.3125144,-77.8641103
The Lantern,38.4204873,-82.4450132
Summit Beer Station,38.4211343,-82.4441210
The Cellar Door Tapas Room,38.4218991,-82.4437426
The Peddler,38.4216958,-82.4448354
Green,38.4220056,-82.4362726
Port City Tavern,39.2859282,-76.5878048
Catbird,37.3018338,-78.3942884
Fox & Hounds Lounge,38.9108644,-77.0382685
Wrangler,39.5210526,-81.4161167
Valley Grill Sports Bar,39.4344218,-77.5289990
The Crown & Crow,38.9078763,-77.0315771
Citizen burger,38.8860594,-77.0945753
Big Fish Cider Company,38.4122225,-79.5829143
